id,nom,latitude,longitude
20245,C.F.P.A.,49.142821,6.171985
10708,ROSE GONTHIER,49.103613,6.243257
10709,ZONE HERGOTT,49.15929,6.158793
20439,LA DAME,49.098537,6.244019
20244,RAMON,49.140223,6.17261
20041,SUGNON,49.094047,6.163126
20247,BOILEAU,49.142901,6.169416
20040,SUGNON,49.09431,6.162337
20246,BOILEAU,49.140167,6.172249
20241,DE CHARDIN,49.144518,6.17181
20436,DOLICHE,49.094534,6.245755
20240,FONTAINES,49.146559,6.171951
20435,CUVION,49.092385,6.242829
20243,DREYFUS,49.142275,6.172397
20438,LA DAME,49.098897,6.2433
20242,DE CHARDIN,49.143952,6.172245
20437,DOLICHE,49.094615,6.246003
20909,FRIERES,49.140403,6.135219
20432,MERCY,49.092108,6.240533
20431,F.I.M.,49.092146,6.234798
20434,CUVION,49.09248,6.242702
20433,MERCY,49.092159,6.240086
20249,CONSTANTINE,49.091231,6.125226
20905,LESSY,49.120937,6.094775
20906,LE QUOITY,49.123278,6.094878
20248,CONSTANTINE,49.091427,6.12623
20430,F.I.M.,49.092106,6.234914
20907,SCY-CHAZELLES,49.114118,6.116556
20908,FRIERES,49.140146,6.135521
20913,ATELIERS MUNICIPAUX,49.14252,6.12179
20630,BOUZONVILLE,49.135426,6.213675
20912,ATELIERS MUNICIPAUX,49.142488,6.122013
20631,TILLEULS,49.134521,6.209846
20915,LORRY GRAND RUE,49.141806,6.118326
20914,LORRY GRAND RUE,49.141735,6.118591
20632,GRIMONT,49.140429,6.217495
10710,VERLIN,49.113327,6.027883
20911,CARREFOUR,49.144455,6.127848
20910,CARREFOUR,49.144423,6.127608
20046,COLSON,49.089859,6.166111
20637,YVAN GOLL,49.13491,6.169867
20047,COLSON,49.090385,6.166508
20048,VACONS,49.087508,6.164527
20639,DURUTTE,49.114977,6.1928
20049,VACONS,49.087429,6.1643
20042,LYAUTEY,49.093867,6.167411
20633,JOBA,49.141179,6.16567
10716,GRAVIERES,49.078724,6.111973
20634,METZ-NORD GARE,49.136989,6.168307
20043,LYAUTEY,49.093463,6.168015
20635,METZ-NORD GARE,49.137802,6.167997
20044,JERUSALEM,49.091913,6.167229
20636,YVAN GOLL,49.133603,6.169638
20045,JERUSALEM,49.091747,6.167272
20030,CHARLES PETRE,49.105376,6.166618
20236,BLORY,49.087247,6.166818
20235,BLORY,49.087325,6.167416
20449,STADE,49.13181,6.131997
20232,LE MERCIER,49.088393,6.169687
20448,STADE,49.131664,6.130795
20231,LE MERCIER,49.08877,6.16978
20447,CROIX D'OREE,49.132377,6.125455
20445,LA CROIX,49.128974,6.130409
20443,MOMENE,49.129137,6.127592
10098,EGLISE,49.098756,6.173013
20442,LE LAC,49.096216,6.238373
10099,LAVOIR,49.097134,6.174831
20918,CARRIERE,49.16903,6.050299
20441,FALOGNE,49.098072,6.240245
20919,CARRIERE,49.168981,6.049968
20440,FALOGNE,49.097961,6.240284
20239,FONTAINES,49.14641,6.171613
20916,CHAPELLE,49.141664,6.115763
20238,RICHET,49.148041,6.171433
20917,CHAPELLE,49.141731,6.11564
20642,BERNARD,49.11457,6.211416
20926,JUSTICE,49.166546,6.03834
10093,ARENES,49.105965,6.173556
20643,BERNARD,49.115608,6.210108
10092,ST GEORGES,49.122576,6.178165
20925,DOUANIERS,49.16917,6.049078
10091,RIMPORT,49.124273,6.181587
20924,DOUANIERS,49.169993,6.047781
20641,GANNE,49.115622,6.205456
20923,AMANVILLERS MAIRIE,49.167352,6.043792
10090,PONTIFFROY,49.127087,6.176496
20922,AMANVILLERS MAIRIE,49.167315,6.044089
10097,ST BERNARD,49.099983,6.171216
20921,GRAND RUE,49.16866,6.048524
10720,CHEVROTTES,49.092729,6.274441
10096,CHAPELLE,49.100289,6.172633
20039,ST ANDRE,49.096016,6.159141
20920,GRAND RUE,49.168571,6.048406
10095,SAINT LIVIER,49.101246,6.174749
10094,BOILVIN,49.103326,6.174718
20037,SEMINAIRE,49.098821,6.161416
20038,ST ANDRE,49.095017,6.159309
20035,VAILLANT,49.100301,6.162633
20649,DEFENSE,49.107425,6.222794
20036,SEMINAIRE,49.097296,6.159947
20033,MANGIN,49.102981,6.164812
20646,BERGSON,49.108491,6.220521
20647,BERGSON,49.108586,6.220737
20034,VAILLANT,49.099734,6.161893
20031,CHARLES PETRE,49.105118,6.166607
20644,VALERY,49.110719,6.21913
20645,VALERY,49.110566,6.219524
20032,MANGIN,49.101628,6.163578
20458,FELIX MARECHAL,49.129281,6.137229
20263,ST QUENTIN,49.097305,6.144397
20262,ST QUENTIN,49.097806,6.143499
20265,ST PIERRE,49.093101,6.130913
20459,CLETTE,49.133166,6.133541
20264,ST QUENTIN,49.097133,6.143214
20061,ST NICOLAS,49.113474,6.178398
20267,ALGER,49.094319,6.13477
20266,ST PIERRE,49.093487,6.132556
20063,SERRET,49.109933,6.099509
20269,TOURAINE,49.095159,6.137307
20268,ALGER,49.094357,6.135257
20450,BRION,49.129628,6.132807
20452,MESOYERS,49.125935,6.157023
20451,BRION,49.130574,6.133126
10087,DALES,49.132402,6.166145
20454,PRES ST JACQUES,49.134329,6.130716
20453,MESOYERS,49.126051,6.156872
10088,EBLE,49.131899,6.169053
10089,STE BARBE,49.128897,6.170953
20931,PLACE PUBLIQUE,49.154456,6.118011
10084,PATROTTE,49.134819,6.161313
10083,PAQUET,49.135065,6.156755
20933,RUE DE METZ,49.155718,6.112978
10086,BERNANOS,49.133283,6.16812
20932,PLACE PUBLIQUE,49.154613,6.118068
10085,DENAIN,49.135641,6.166082
20935,SAULNY CENTRE,49.158584,6.106055
10080,QUATRE BORNES,49.139303,6.153457
20934,RUE DE METZ,49.155796,6.11311
20652,MICHELET,49.107235,6.228147
20937,BREUIL,49.160339,6.225823
20653,BORNY,49.10764,6.226753
10082,MOULINS MAIRIE,49.106999,6.106378
20936,BREUIL,49.160456,6.225804
10081,ST ELOY,49.148186,6.171778
20654,SEBASTOPOL,49.10793,6.23789
20655,SEBASTOPOL,49.107569,6.238713
20064,SERRET,49.109953,6.099902
20656,SOLIDARITE,49.107696,6.243086
20065,ST JEAN,49.107987,6.104914
20657,SOLIDARITE,49.108065,6.243105
20066,ST JEAN,49.107874,6.10563
20658,FAURNEL,49.099859,6.242836
20067,MAGNY-AU-BOIS,49.075431,6.19535
20068,LE PATIS,49.15625,6.140045
20659,FAURNEL,49.100487,6.243099
20069,LIBERTE,49.107626,6.116943
20260,LES FRICHES,49.100099,6.141933
20261,LES FRICHES,49.099933,6.141901
20254,ALSACE,49.097586,6.129162
20253,ALSACE,49.097851,6.129572
20469,LORRY,49.135534,6.14924
20252,SAVOIE,49.096073,6.127213
20468,LORRY,49.135377,6.14934
20251,ANEMONES,49.094689,6.127949
20052,VOLONTAIRES,49.086598,6.156631
20258,8 MAI 1945,49.099941,6.138384
20051,MARGUERITE,49.088249,6.159647
20257,HAUT-RHELE,49.099033,6.13236
20050,MARGUERITE,49.088519,6.159345
20256,HAUT-RHELE,49.099102,6.132342
20255,SAVOIE,49.09608,6.127482
20463,ROUSSEL,49.13551,6.139901
20462,ROUSSEL,49.135469,6.139449
20938,CHIEULLES,49.159406,6.228951
20461,CAILLOUX,49.134777,6.137378
20939,CHIEULLES,49.159454,6.228745
20460,CAILLOUX,49.134432,6.136231
20259,8 MAI 1945,49.099762,6.138629
20467,SANSONNET,49.136522,6.147127
10078,ST ROCH,49.078738,6.18397
10079,MORLOT,49.14108,6.150491
20466,SANSONNET,49.136331,6.147258
20465,BAUCHEZ,49.136516,6.143053
10076,ACACIAS,49.073324,6.184537
20464,BAUCHEZ,49.1365,6.142755
10077,PETIT-CLOU,49.075662,6.184159
20660,ARIANE,49.094847,6.238683
20944,RUE DE METZ,49.133048,6.25347
10075,ROSEAUX,49.071261,6.186211
20661,ARIANE,49.095468,6.238725
20943,RUE DE METZ,49.132918,6.252872
10074,VALERIANE,49.070941,6.190727
10073,AUBEPINE,49.072259,6.193105
20942,VILLERS-L'ORME,49.151966,6.247561
10072,COMEDIE,49.12096,6.172025
20941,VANY,49.156121,6.239521
10071,HAUTS-DE-MAGNY,49.074096,6.190774
20948,PINOTS MELES,49.134379,6.271577
20664,AUBIGNY,49.09422,6.269894
10070,BEAUSOLEIL,49.075759,6.187006
20947,PINOTS MELES,49.134485,6.270597
20946,NOUILLY CENTRE,49.135925,6.258621
20662,PASSOTTE,49.092386,6.240503
20945,NOUILLY CENTRE,49.136069,6.258508
20663,PASSOTTE,49.092755,6.240123
20668,PREFECTURE,49.121736,6.174354
20056,SAULCY,49.120683,6.168326
20669,PREFECTURE,49.121497,6.175702
20666,GUYENNE,49.112428,6.218095
20053,VOLONTAIRES,49.086516,6.156709
20667,GUYENNE,49.112387,6.218413
20054,ST PRIVAT,49.084679,6.154756
20940,VANY,49.156538,6.239113
20250,ST PIERRE,49.092513,6.129579
20057,BIBLIOTHEQUE,49.12049,6.164445
20058,LE MOIGNE,49.120421,6.162431
10066,ROOSEVELT,49.07695,6.194152
10065,LA PLAINE,49.078168,6.191448
10068,OBELLIANE,49.076075,6.192738
10067,LE PATIS,49.15625,6.140045
10069,ARMOISIERES,49.077225,6.189655
20949,LES CHAULMES,49.133555,6.276123
20288,GENIE,49.106469,6.164285
20289,GENIE,49.105477,6.163709
20284,EUROPA COURCELLES,49.102123,6.158735
20285,EUROPA COURCELLES,49.101873,6.158445
20286,BOTANIQUE,49.103736,6.162055
20287,BOTANIQUE,49.103928,6.162672
20281,LITALDUS,49.099935,6.152666
20280,LITALDUS,49.099475,6.151035
20002,REPUBLIQUE,49.115655,6.173539
20283,NATION,49.101279,6.154658
20950,LES CHAULMES,49.134104,6.27577
20282,NATION,49.101335,6.154605
20004,REPUBLIQUE,49.11486,6.173456
20951,MAS AU LIEVRE,49.131792,6.275067
20678,BLIDA,49.125879,6.181409
20677,VOLO,49.125279,6.206401
20001,REPUBLIQUE,49.115508,6.174292
20679,BLIDA,49.125692,6.181443
20674,CEDRES,49.127401,6.211911
20673,AULNES,49.127298,6.207678
20676,VOLO,49.125352,6.206442
10060,BOUCHOTTE,49.09255,6.181266
20959,RUE D'ARS,49.111687,6.028925
20675,CEDRES,49.127435,6.211656
20670,MELEZES,49.128164,6.203304
10061,FRECOT,49.090989,6.181545
20007,REPUBLIQUE,49.114359,6.1725
10062,SUR-LE-GUE,49.08616,6.182367
20006,REPUBLIQUE,49.115876,6.173383
20672,AULNES,49.127244,6.207678
20009,REPUBLIQUE,49.115721,6.173388
10063,FAUBOURG,49.084322,6.182802
10064,APREMONT,49.079809,6.187533
20008,REPUBLIQUE,49.114699,6.173279
20671,MELEZES,49.12785,6.203632
10057,PIERNE,49.102413,6.179811
20400,HERMITE,49.105768,6.187311
10056,LEMUD,49.104011,6.179634
20401,HERMITE,49.105852,6.187463
10055,DEMBOUR,49.106361,6.179303
10054,ROI GEORGE,49.110649,6.170314
10059,VANDERNOOT,49.095652,6.180676
10058,LOTHAIRE,49.099424,6.180395
20279,ST VICTOR,49.098273,6.147471
20408,GRANDMAISON,49.097972,6.194278
20409,GRANDMAISON,49.098211,6.194501
20277,CITE SNCF,49.09067,6.128154
20406,TIVOLI,49.099542,6.189834
20278,ST VICTOR,49.097991,6.146249
20407,TIVOLI,49.099718,6.189421
20275,LOTIS. INDUSTRIEL,49.089491,6.124281
20404,DUCROCQ,49.101329,6.188334
20276,CITE SNCF,49.090607,6.127315
20405,DUCROCQ,49.101871,6.188323
20273,ROTONDE,49.087741,6.11829
20402,COLLIGNON,49.104451,6.18736
20274,LOTIS. INDUSTRIEL,49.089649,6.124102
20403,COLLIGNON,49.104182,6.187191
20272,ROTONDE,49.087279,6.117113
20271,TOURNEBRIDE,49.086098,6.112645
20270,TOURAINE,49.095512,6.138724
20688,ST EXUPERY,49.086988,6.153127
20969,POUILLY,49.049823,6.188433
20687,ST EXUPERY,49.087124,6.153014
20686,MARRONNIERS,49.134202,6.215343
20685,PINS,49.132195,6.215446
20684,FRENES,49.13197,6.211513
20968,POUILLY,49.049845,6.188245
10052,ST JACQUES,49.118268,6.176644
10053,PTE SERPENOISE,49.112617,6.171541
20963,MALMAISON,49.124887,6.017052
10050,DAGA,49.13654,6.155952
20964,MALMAISON,49.12504,6.016909
20680,GOUSSAUD,49.124063,6.172146
10048,FORT MOSELLE,49.12446,6.164864
10047,TIGNOMONT,49.126804,6.159731
10049,BELLE-ISLE,49.121261,6.168798
10044,PONT DE VERDUN,49.119069,6.144067
10043,CASINO,49.116551,6.141214
20410,GIRAUDOUX,49.097204,6.200458
10046,ST MARTIN,49.121618,6.151047
20411,GIRAUDOUX,49.097543,6.199679
10045,FOCH,49.120689,6.148013
20412,ROEDERER,49.09803,6.202615
20413,ROEDERER,49.098638,6.203798
20414,GENERAL FRERE,49.1,6.205476
20415,GENERAL FRERE,49.100192,6.206181
20416,SEULHOTTE,49.101331,6.208305
20417,SEULHOTTE,49.101414,6.208648
20418,SYMPHONIE,49.104673,6.214215
20419,SYMPHONIE,49.104917,6.21507
20021,CITE U,49.120224,6.159604
21551,PLACE DE GAULE,49.060911,6.162694
20020,PLACE D'ARMES,49.119538,6.175495
21552,ROUTE DE BOULAY,49.126692,6.27577
20699,CHATRIAN,49.103342,6.149002
20023,SCIENCES,49.120615,6.165188
20022,LETTRES,49.120793,6.162896
20970,COLOMBIER,49.048281,6.185562
20025,ST THIEBAULT,49.11297,6.177281
20024,SEROT,49.119758,6.16977
20971,COLOMBIER,49.048226,6.185612
20027,LAFAYETTE,49.107684,6.171856
21553,ROUTE DE BOULAY,49.126606,6.26771
20026,LAFAYETTE,49.107696,6.172284
21554,MAS AU LIEVRE,49.131539,6.275074
20973,THERMES,49.050279,6.183357
20974,MAHIRE,49.050078,6.184572
20029,BON SECOURS,49.107041,6.168986
20692,POUGIN,49.100022,6.154519
10040,LECLERC,49.11092,6.130153
20028,BON SECOURS,49.107153,6.168661
10041,LONGEVILLE,49.112534,6.134798
20694,MEURISSE,49.102278,6.155149
10042,MIGETTE,49.114047,6.138831
20693,POUGIN,49.100042,6.15487
20978,JEAN MOULIN,49.187006,6.044024
20696,LES COUVENTS,49.103546,6.152256
20979,CONOT CHENOY,49.188786,6.03856
20695,MEURISSE,49.102396,6.155538
20698,CHATRIAN,49.10326,6.14874
20697,LES COUVENTS,49.103613,6.152323
10039,SCY BAS,49.108444,6.121213
10038,LORRAINE,49.102244,6.108765
10037,ARDECHE,49.101225,6.106505
10036,PREVILLE,49.102093,6.104476
10035,VIEILLES EAUX,49.10332,6.105012
20422,TECHNOPOLE,49.104402,6.223622
10034,MOULINS,49.106116,6.110979
20423,TECHNOPOLE,49.105077,6.223359
10033,LIBERTE,49.107477,6.116533
20420,CHAPPE,49.10725,6.220813
10032,MAGNY-AU-BOIS,49.075301,6.195189
20421,CHAPPE,49.106308,6.221995
20297,LEGOUEST,49.11163,6.19136
20426,LINIERES,49.097343,6.224368
20298,LEGOUEST,49.11162,6.192153
20427,LINIERES,49.096984,6.224797
20424,ARAGO,49.101363,6.224116
20295,LACRETELLE,49.111227,6.187343
20296,LACRETELLE,49.111945,6.186621
20425,ARAGO,49.101754,6.224243
20428,ENSAM,49.096128,6.227245
20429,ENSAM,49.096312,6.226414
20290,VERLAINE,49.109523,6.166817
20012,REPUBLIQUE,49.115208,6.173798
20980,CONOT CHENOY,49.188728,6.038486
20011,REPUBLIQUE,49.115721,6.173388
20010,REPUBLIQUE,49.115655,6.173539
20294,LACRETELLE,49.111718,6.188278
20016,GARE SNCF,49.109623,6.174366
20983,CHAMP BANAL,49.17265,6.04543
20015,GARE SNCF,49.109839,6.173874
20984,CHAMP BANAL,49.173234,6.045326
20014,GARE SNCF,49.111815,6.176944
20292,JEAN XXIII,49.112784,6.182338
20981,ABBE BAUZIN,49.18934,6.034948
20013,GARE SNCF,49.112068,6.178606
20982,ABBE BAUZIN,49.189125,6.036346
20291,VERLAINE,49.10818,6.167951
20987,GRANDE FLAMEE,49.182824,6.040168
10030,SERRET,49.109943,6.099705
10031,ST JEAN,49.10793,6.105272
20988,GRANDE FLAMEE,49.183115,6.040279
20019,PLACE D'ARMES,49.119991,6.175829
20018,PLAPPEVILLE,49.130544,6.124422
20985,SAINT PRIVAT,49.186009,6.037485
20017,TURGOT,49.109821,6.187681
20986,SAINT PRIVAT,49.186068,6.03772
21075,Centre POMPIDOU,49.108441,6.180427
10291,BOUTAN,49.067218,6.169894
10290,AZALEES,49.067353,6.168055
10293,FERRY,49.061007,6.166711
10292,AV. DE MAGNY,49.064101,6.167127
10298,LES ECOLES,49.058897,6.156428
10299,HOTEL DE VILLE,49.06005,6.154182
10296,BRAZZA,49.057156,6.167665
10297,CENTRE COMMERCIAL,49.058969,6.159051
21077,FELIX MARECHAL,49.129106,6.137785
10790,ROUTE DE BOULAY,49.126649,6.27174
21079,CATHEDRALE,49.119926,6.174484
21068,PONTIFFROY,49.126492,6.178463
21051,GLISSU,49.055814,6.119876
21050,GLISSU,49.055881,6.119799
10273,ST LADRE,49.096906,6.155202
10272,LOGES,49.09891,6.158711
10271,ARSENAL,49.122928,6.187977
10270,TANNERIES,49.126976,6.192943
21391,ZONE HERGOTT,49.159781,6.158916
21396,VERNEVILLE,49.145226,6.005294
10278,COUBERTIN,49.091935,6.144348
21397,VERNEVILLE,49.145085,6.005816
21398,ROSE GONTHIER,49.103621,6.243188
10276,PONSARD,49.089598,6.147205
21399,ROSE GONTHIER,49.103605,6.243327
10277,SIMMINGER,49.090216,6.144849
10274,MERMOZ,49.093771,6.151806
10275,BLERIOT,49.089897,6.149407
21054,MAISON NEUVE,49.11029,6.091101
21042,CRIMEE,49.113562,6.113576
21041,CRIMEE,49.114361,6.112973
10281,MARCONI,49.100584,6.217886
10284,CROIX ST JOSEPH,49.060103,6.162855
10283,ALEXANDRE FLEMING,49.059413,6.163854
10280,PEUPLIERS,49.105363,6.209753
10289,BLEUETS,49.066503,6.16446
10285,PLACE DE GAULE,49.06091,6.162563
10286,LYS,49.062776,6.161541
10287,GLAIEULS,49.064183,6.158484
10288,CAMELIAS,49.06599,6.159558
21045,MARIEULLES,48.998756,6.100187
21046,VEZON,49.00654,6.094826
21049,FEY,49.029056,6.096845
21047,VEZON,49.006575,6.094954
21048,FEY,49.029075,6.09659
20470,N. JUNG,49.13365,6.152483
20478,MAGINOT,49.116871,6.185283
20208,JARDINIERS,49.095241,6.176491
20475,COLIBRI,49.130071,6.158906
20209,4 VENTS,49.094005,6.175613
20476,DENY,49.132554,6.142888
20206,LAVOIR,49.097251,6.174771
20473,LE MOYNE,49.131298,6.156734
20207,JARDINIERS,49.0953,6.176353
20474,COLIBRI,49.130273,6.158385
20204,EGLISE,49.099052,6.173756
20471,N. JUNG,49.133359,6.153132
20205,LAVOIR,49.097018,6.174891
20472,LE MOYNE,49.131432,6.156283
20202,ST BERNARD,49.099983,6.171216
20203,EGLISE,49.09846,6.172271
20200,SAINT LIVIER,49.101246,6.174749
20201,CHAPELLE,49.100289,6.172633
20481,JUIN,49.118393,6.190042
20480,JUIN,49.118138,6.189829
20486,BERNE,49.122776,6.193886
20487,BERNE,49.122851,6.194142
20488,ALSACE LORRAINE,49.12123,6.195397
20489,ALSACE LORRAINE,49.121446,6.194768
20482,RAPHAEL LEVY,49.120011,6.190535
20483,RAPHAEL LEVY,49.120307,6.190807
20484,ARTILLEURS,49.120309,6.193463
20485,ARTILLEURS,49.120142,6.193077
20492,PETITES SOEURS,49.119098,6.204376
20491,STOXEY,49.120076,6.196212
21095,CHR MERCY,49.085487,6.243075
20490,STOXEY,49.119173,6.196262
21096,TELEGRAPHE,49.146915,6.003114
21097,TELEGRAPHE,49.146804,6.003065
21099,VIGNOTTES,49.04201,6.156139
20228,SCARPONE,49.091445,6.169697
20495,METMAN,49.120055,6.209572
21098,VIGNOTTES,49.041864,6.156111
20496,MAUJEAN,49.120243,6.214953
20493,PETITES SOEURS,49.118934,6.204221
20227,SCARPONE,49.091365,6.169794
20494,METMAN,49.120102,6.208867
20499,GENIVAUX,49.122045,6.21658
20497,MAUJEAN,49.120122,6.214525
20498,GENIVAUX,49.122143,6.216615
20221,SABLIERES,49.086285,6.163121
20224,ST PIERRE,49.100238,6.175488
20222,SABLIERES,49.08643,6.163806
20223,CUGNOT,49.085555,6.163519
21081,TRENTE JOURS,49.096462,6.24581
21082,CHEMIN NOIR,49.114182,6.097957
21080,TRENTE JOURS,49.09626,6.245818
20900,NOUILLONS,49.111846,6.097379
20901,NOUILLONS,49.112055,6.097331
21085,LUETTE,49.085191,6.148565
21086,LUETTE,49.085451,6.148358
20902,ERMITAGE,49.118285,6.096176
20903,ERMITAGE,49.118338,6.096492
21083,CHEMIN NOIR,49.114174,6.098109
21084,11ème D'AVIATION,49.08619,6.14531
20904,LESSY,49.120937,6.094775
21089,LAQUENEXY,49.07894,6.316329
21088,EGLISE,49.109163,6.030398
21087,EGLISE,49.109085,6.030246
20210,4 VENTS,49.093858,6.175606
20211,LA HORGNE,49.093299,6.172565
20212,LA HORGNE,49.092954,6.172783
20213,BERTRAM,49.09351,6.169875
20214,BERTRAM,49.093282,6.169986
21106,JP PECHEUR,49.152122,6.161751
10346,CEDRES,49.127418,6.211783
21107,JP PECHEUR,49.152043,6.161432
10347,VOLO,49.125315,6.206421
21108,POULMAIRE,49.151093,6.165768
10344,MELEZES,49.128007,6.203468
21109,POULMAIRE,49.151192,6.166926
10345,AULNES,49.127271,6.207678
10342,PREFECTURE,49.121616,6.175028
10343,ST JULIEN FORT,49.14109,6.206231
10340,PASSOTTE,49.09257,6.240313
10341,AUBIGNY,49.09422,6.269894
21100,RUE D'ARS,49.111983,6.028914
21101,ENIM,49.094037,6.22907
21102,ENIM,49.094288,6.229231
21103,VERDUN,49.080169,6.058095
21104,RUISSEAU,49.151022,6.158542
10348,BLIDA,49.125785,6.181426
21105,RUISSEAU,49.151112,6.158716
10349,GOUSSAUD,49.124063,6.172146
10334,MICHELET,49.107235,6.228147
10335,BORNY,49.10764,6.226753
10336,SEBASTOPOL,49.107749,6.238301
10330,VALERY,49.110642,6.219327
10331,BERGSON,49.108538,6.220629
10332,DEFENSE,49.107425,6.222794
10337,SOLIDARITE,49.10788,6.243095
10338,FAURNEL,49.100173,6.242967
10339,ARIANE,49.095157,6.238704
10320,MARRONNIERS,49.134278,6.215342
10321,BOUZONVILLE,49.135426,6.213675
10324,JOBA,49.141306,6.165477
10325,METZ-NORD GARE,49.137395,6.168152
10322,TILLEULS,49.134521,6.209846
10323,GRIMONT,49.140429,6.217495
10328,GANNE,49.115442,6.204799
10329,BERNARD,49.115089,6.210762
10326,YVAN GOLL,49.134256,6.169752
10327,DURUTTE,49.114977,6.1928
10310,PREVOTE,49.092228,6.155912
10311,TERRES ROUGES,49.129853,6.197433
10312,ST JULIEN EGLISE,49.134416,6.202662
10313,CIMETIERE,49.137166,6.205889
10314,VILLERS L'ORME,49.135127,6.206515
10315,ERABLES,49.13245,6.205824
10316,HETRES,49.132293,6.208659
10317,CARRIERES,49.129895,6.208545
10318,FRENES,49.132124,6.211702
10319,PINS,49.132282,6.215654
10598,PONT ROUGE,49.115025,6.192402
10597,EDGAR REYLE,49.113216,6.192544
10599,ASPTT,49.108076,6.20489
10387,MAIRIE BORNY,49.110763,6.222423
21156,PONT ROUGE,49.114977,6.1928
21155,PONT ROUGE,49.115073,6.192005
21154,EDGAR REYLE,49.113414,6.192463
21153,EDGAR REYLE,49.113019,6.192625
21157,GANNE,49.115262,6.204143
10377,EN FOURNIRUE,49.118008,6.178726
10570,JP PECHEUR,49.152082,6.161591
10571,POULMAIRE,49.151142,6.166347
21152,Centre POMPIDOU,49.108441,6.180427
21150,Centre POMPIDOU,49.108298,6.180342
10369,TETE D'OR,49.117314,6.177093
10368,PETIT PARIS,49.118241,6.175291
10367,FABERT,49.118938,6.175497
10366,CATHEDRALE,49.119957,6.174595
10560,LAQUENEXY,49.07894,6.316329
10360,LILAS,49.095649,6.143597
10566,TELEGRAPHE,49.146859,6.003089
10567,VIGNOTTES,49.041937,6.156125
10565,CHR MERCY,49.085487,6.243075
10568,ENIM,49.094162,6.22915
10569,RUISSEAU,49.151067,6.158629
10359,PAQUIS,49.101975,6.141988
10351,ST EXUPERY,49.087056,6.15307
10354,POUGIN,49.100032,6.154694
10356,LES COUVENTS,49.103579,6.152289
10355,MEURISSE,49.102337,6.155343
10358,VERGERS,49.102318,6.145815
10357,CHATRIAN,49.103301,6.148871
10554,Centre POMPIDOU,49.108393,6.180398
10350,VOUERIE,49.085913,6.155414
10556,TRENTE JOURS,49.096361,6.245814
10557,CHEMIN NOIR,49.114178,6.098033
10558,LUETTE,49.085321,6.148461
10559,EGLISE,49.109124,6.030322
10130,ST PIERRE,49.093294,6.131734
10546,MAISON NEUVE,49.11029,6.091101
10543,FEY,49.029065,6.096717
10542,VEZON,49.006557,6.09489
10544,GLISSU,49.055847,6.119837
20192,RIMPORT,49.124126,6.181019
20193,RIMPORT,49.12442,6.182156
20194,ST GEORGES,49.122724,6.178301
10541,MARIEULLES,48.998756,6.100187
20195,ST GEORGES,49.122428,6.17803
20197,ARENES,49.106035,6.173556
20196,ARENES,49.105895,6.173556
20199,BOILVIN,49.103217,6.174654
20198,BOILVIN,49.103435,6.174783
10139,NATION,49.101307,6.154631
10135,LOTIS. INDUSTRIEL,49.08957,6.124191
10136,CITE SNCF,49.090638,6.127734
10137,ST VICTOR,49.098132,6.14686
10138,LITALDUS,49.099705,6.15185
10131,ALGER,49.094338,6.135013
10132,TOURAINE,49.095335,6.138015
10133,TOURNEBRIDE,49.086098,6.112645
10134,ROTONDE,49.08751,6.117701
10141,BOTANIQUE,49.103832,6.162363
10140,EUROPA COURCELLES,49.101998,6.15859
20996,SALETTE,49.152869,6.246799
10538,CRIMEE,49.113961,6.113274
10534,PRESSOIR,49.13518,6.257054
10533,PENSEES,49.134709,6.273744
10532,CARCAN,49.093742,6.086876
10531,PETIT COEUR,49.166103,6.040458
10530,HLM,49.083259,6.086845
10148,STRASBOURG,49.110103,6.203215
10146,LEGOUEST,49.111625,6.191756
10147,ALCAN,49.112691,6.197275
10144,JEAN XXIII,49.112784,6.182338
10145,LACRETELLE,49.11163,6.187414
10142,GENIE,49.105973,6.163997
10143,VERLAINE,49.108851,6.167384
10525,VERDUN,49.080122,6.058124
10524,POSTE EDF,49.151962,6.213736
10527,RD6,49.093432,6.095162
10526,CLEMENCEAU,49.080543,6.08433
10529,ARS SUR MOSELLE,49.075785,6.076639
10528,SCHWALBACH,49.079272,6.06582
10521,R. SCHUMAN,49.110742,6.111989
10523,LASSAUX,49.116237,6.097954
10522,CHENEAU,49.108892,6.1208
10117,DREYFUS,49.142275,6.172397
10118,RAMON,49.140195,6.172429
10119,C.F.P.A.,49.142821,6.171985
10111,SCARPONE,49.091405,6.169745
10112,LE MERCIER,49.088581,6.169733
10113,BLORY,49.087286,6.167117
10114,RICHET,49.148041,6.171433
10115,FONTAINES,49.146484,6.171782
10116,DE CHARDIN,49.144235,6.172027
10513,GRANDE FLAMEE,49.182969,6.040223
10518,SALETTE,49.152869,6.246799
10512,SAINT PRIVAT,49.186038,6.037602
10511,CHAMP BANAL,49.172942,6.045378
10510,ABBE BAUZIN,49.189232,6.035647
10128,LES FRICHES,49.100016,6.141917
10129,ST QUENTIN,49.097517,6.143602
10122,ST PIERRE,49.092513,6.129579
10123,ANEMONES,49.094689,6.127949
10120,BOILEAU,49.141534,6.170832
10121,CONSTANTINE,49.091449,6.126155
10126,HAUT-RHELE,49.099067,6.132351
10127,8 MAI 1945,49.099851,6.138506
10124,SAVOIE,49.096076,6.127347
10125,ALSACE,49.097718,6.129367
20601,PAPETERIE,49.068538,6.146654
20600,PAPETERIE,49.068917,6.146973
20603,LES CLOS,49.072941,6.147909
20602,LES CLOS,49.073823,6.147771
10501,POUILLY,49.049834,6.188339
20605,GARENNES,49.076569,6.146633
20604,GARENNES,49.076519,6.146425
20607,GRANGE AUX ORMES,49.080816,6.146549
20606,GRANGE AUX ORMES,49.080681,6.146224
10508,JEAN MOULIN,49.187006,6.044024
10509,CONOT CHENOY,49.188757,6.038523
10502,COLOMBIER,49.048253,6.185587
10503,THERMES,49.050279,6.183357
10504,MAHIRE,49.050078,6.184572
10309,JEANNE D'ARC,49.089529,6.153574
10308,COSTES ET BELLONTE,49.083855,6.149068
10305,LES CLOS,49.073382,6.14784
10304,PAPETERIE,49.068727,6.146813
10307,GRANGE AUX ORMES,49.080748,6.146386
10306,GARENNES,49.076544,6.146529
10300,RUE DE LA GARE,49.060969,6.151821
10303,LARGANTIER,49.062461,6.146314
10302,ST BRICE,49.06026,6.150034
10105,QUEULEU,49.099961,6.191345
10103,BERTRAM,49.093396,6.16993
10102,LA HORGNE,49.093126,6.172674
10101,4 VENTS,49.093931,6.175609
10100,JARDINIERS,49.09527,6.176422
10109,ST PIERRE,49.100238,6.175488
10108,CUGNOT,49.085555,6.163519
10107,SABLIERES,49.086357,6.163463
10106,TURGOT,49.109834,6.187899
20627,PINS,49.13237,6.215862
20626,FRENES,49.132278,6.211891
20629,MARRONNIERS,49.134355,6.215341
20623,ERABLES,49.13245,6.205824
20625,CARRIERES,49.129886,6.209666
20624,HETRES,49.132293,6.208659
10707,VERNEVILLE,49.145155,6.005555
20621,VILLERS L'ORME,49.135127,6.206515
20620,CIMETIERE,49.137187,6.206023
20619,CIMETIERE,49.137146,6.205755
20618,ST JULIEN EGLISE,49.134476,6.202759
20617,ST JULIEN EGLISE,49.134357,6.202566
20616,TERRES ROUGES,49.129912,6.19764
20615,TERRES ROUGES,49.129794,6.197226
20614,ST ANDRE,49.094818,6.157941
20613,PREVOTE,49.092832,6.156508
20612,PREVOTE,49.091624,6.155317
20611,JEANNE D'ARC,49.089674,6.153626
20610,JEANNE D'ARC,49.089656,6.153652
20608,COSTES ET BELLONTE,49.084284,6.149271
20609,COSTES ET BELLONTE,49.083426,6.148866
20571,GLAIEULS,49.064183,6.158484
20807,MICHEL ANGE,49.059369,6.169179
20573,CAMELIAS,49.06599,6.159558
20575,BLEUETS,49.066503,6.16446
20577,BOUTAN,49.067218,6.169894
20576,AZALEES,49.067353,6.168055
20384,MIRABELLES,49.1313,6.145831
20579,AV. DE MAGNY,49.064101,6.167127
21430,CHEVROTTES,49.092791,6.274357
20383,LES VIGNES,49.129115,6.145212
20180,VOUERIE,49.085913,6.155414
20386,LA BUTTE,49.132891,6.147007
20385,MIRABELLES,49.131623,6.146175
20388,BUCHOZ,49.135243,6.148576
20182,EBLE,49.131899,6.169053
20181,DALES,49.132355,6.166398
20387,LA BUTTE,49.133194,6.147402
20184,STE BARBE,49.128726,6.170968
20389,DUPLOYE,49.109411,6.189032
20185,STE BARBE,49.129069,6.170938
20776,CENTRALE,49.155008,6.185911
20777,CENTRALE,49.154691,6.186467
10619,POLE MULTIMODAL,49.107501,6.177698
20778,GRANGE-AUX-DAMES,49.146147,6.19066
10618,BLD SEROT,49.121151,6.167313
20188,PONTIFFROY,49.127256,6.176198
20779,GRANGE-AUX-DAMES,49.146451,6.190955
10613,LAVERAN,49.111883,6.199988
20189,PONTIFFROY,49.127513,6.174827
20380,FELIX MARECHAL,49.130181,6.138578
20382,LES VIGNES,49.128856,6.145152
20810,CIMETIERE DE L'EST,49.110125,6.199822
20770,LA MAXE,49.168613,6.189582
20812,TCRM,49.127379,6.184542
10611,PORTE SERP. (HARELLE),49.112688,6.171667
20811,TCRM,49.128066,6.18553
20771,LA MAXE,49.168694,6.18952
20772,CHENEVIERES,49.165766,6.189568
20813,POSTE EDF (St Julien),49.151962,6.213736
20773,CHENEVIERES,49.165828,6.189745
20774,PIERRET,49.164096,6.188652
20815,ST JULIEN FORT,49.140828,6.205776
20775,PIERRET,49.163536,6.188565
20584,BRAZZA,49.057156,6.167665
21425,SERRURIERS,49.118616,6.240034
20819,COLOMBEY,49.110898,6.23049
20817,BOURGOGNE,49.114273,6.227053
20818,BOURGOGNE,49.114178,6.227007
20588,LES ECOLES,49.05881,6.156493
21429,CHEVROTTES,49.092667,6.274526
20587,CENTRE COMMERCIAL,49.058975,6.158888
20586,CENTRE COMMERCIAL,49.058964,6.159215
20375,ST SIMON,49.12763,6.152168
20374,ST SIMON,49.127661,6.151916
20373,MARNE,49.126762,6.154139
20589,LES ECOLES,49.058985,6.156363
20372,MARNE,49.126738,6.153943
20379,CASTORS,49.128481,6.14578
20173,PAQUET,49.135095,6.15679
21422,SERRURIERS,49.118251,6.240068
20378,CASTORS,49.128357,6.145873
20172,PAQUET,49.135036,6.156721
20377,TORTUE,49.128386,6.148448
20171,DAGA,49.136468,6.156072
20170,CARRIERES,49.129905,6.207424
21424,POTIERS D'ETAIN,49.116151,6.243566
20376,TORTUE,49.128288,6.148186
20176,DENAIN,49.13536,6.166205
10629,POINCARE,49.116814,6.168722
20177,DENAIN,49.135923,6.16596
20174,PATROTTE,49.134416,6.162303
20175,PATROTTE,49.135189,6.160736
10627,ARLES,49.145686,6.151001
20370,VICTOIRE,49.125158,6.153212
10626,BRIEY,49.151119,6.147501
20371,VICTOIRE,49.124951,6.153146
10625,SAINTE AGATHE,49.164203,6.153814
10624,MATERNITE,49.083017,6.238801
20178,BERNANOS,49.133549,6.168096
10623,BELLEVUE,49.172239,6.152838
20823,FEIVRES,49.115151,6.240668
20781,LES SILOS,49.140729,6.187279
20782,PORT DE METZ,49.137322,6.180787
10621,CHANTRENNE,49.145226,6.005294
10620,ORLY,49.075744,6.116819
20820,COLOMBEY,49.110914,6.230591
20780,LES SILOS,49.140376,6.186403
20580,FERRY,49.061007,6.166711
20783,PORT DE METZ,49.137538,6.181121
20824,FEIVRES,49.114754,6.240076
20784,11ème D'AVIATION,49.085783,6.146222
20553,PONSARD,49.089551,6.147214
20552,PONSARD,49.089645,6.147196
20555,SIMMINGER,49.090114,6.144795
20554,SIMMINGER,49.090319,6.144903
20369,LARDEMELLE,49.124068,6.150026
20551,BLERIOT,49.089795,6.149399
20550,BLERIOT,49.089999,6.149416
20160,ST ROCH,49.079101,6.184166
21412,GRAVIERES,49.078724,6.111973
20366,SIGISBERT,49.122201,6.14891
20365,BEAU RIVAGE,49.115946,6.150981
21413,GRAVIERES,49.078724,6.111973
20368,LARDEMELLE,49.12381,6.14935
20162,MORLOT,49.141094,6.150243
20367,SIGISBERT,49.122495,6.148806
20161,MORLOT,49.141066,6.150739
20362,PEPINIERES,49.114005,6.15485
20361,VILLAS,49.112664,6.157947
20556,COUBERTIN,49.091935,6.144348
20364,BEAU RIVAGE,49.115903,6.15083
20559,PEUPLIERS,49.105694,6.209386
20363,PEPINIERES,49.114318,6.154543
20558,PEUPLIERS,49.105033,6.21012
20167,JOBA,49.141433,6.165285
20169,ST JULIEN FORT,49.141353,6.206686
20360,VILLAS,49.112663,6.157677
20754,MAIRIE BORNY,49.110763,6.222423
20163,QUATRE BORNES,49.139201,6.153432
20164,QUATRE BORNES,49.139406,6.153482
20165,COMEDIE,49.12096,6.172025
20166,ALEXANDRE FLEMING,49.059413,6.163854
20752,ST THIEBAULT,49.112194,6.178575
20566,CROIX ST JOSEPH,49.060103,6.162855
20565,SYMPHONIE,49.104239,6.214974
20564,ARAGO,49.10053,6.22206
20561,MARCONI,49.100535,6.217985
20359,PALAIS  SPORTS,49.111258,6.161258
20560,MARCONI,49.100633,6.217788
20358,PALAIS  SPORTS,49.111023,6.161439
20151,VALERIANE,49.070881,6.18879
20150,AUBEPINE,49.072259,6.193105
21400,ZONE HERGOTT,49.158799,6.158671
21401,VERLIN,49.1133,6.027807
21402,VERLIN,49.113355,6.027959
20569,LYS,49.062776,6.161541
20350,HAUTE-SEILLE,49.115234,6.181713
20567,PLACE DE GAULE,49.060909,6.162433
20158,PETIT-CLOU,49.076555,6.184082
20159,ST ROCH,49.078376,6.183774
20156,ACACIAS,49.073447,6.184585
20769,FRANCLONCHAMPS,49.171161,6.189857
10602,JUNGLING,49.148442,6.152532
20157,PETIT-CLOU,49.07477,6.184236
10601,WOIPPY (Gare),49.148658,6.155342
20154,ROSEAUX,49.071289,6.18571
20155,ACACIAS,49.073202,6.184489
20152,VALERIANE,49.071002,6.192665
20153,ROSEAUX,49.071234,6.186713
20805,CUVRY,49.042872,6.158778
10600,HOPITAL SCHUMAN,49.12335,6.242088
20534,JOUSSE,49.123052,6.206278
20535,JOUSSE,49.122876,6.206871
20536,DUNANT,49.123693,6.203378
20537,DUNANT,49.123836,6.2023
20538,BILLOTTE,49.125904,6.196706
20539,BILLOTTE,49.125468,6.197392
20140,ARMOISIERES,49.077312,6.189445
20530,CORCHADE,49.123105,6.215337
20531,CORCHADE,49.123155,6.215441
20532,JUGAN,49.1225,6.212216
20533,JUGAN,49.122294,6.213355
20853,EN PRILLE,49.10948,6.126021
20854,HAIE BRULEE,49.11072,6.097227
20855,GOUJENOTTE,49.151666,6.189128
20856,GOUJENOTTE,49.151773,6.188043
20858,HAIE BRULEE,49.111644,6.095175
20859,CHATEL ST GERMAIN,49.122234,6.081553
20142,BEAUSOLEIL,49.075723,6.186822
20141,ARMOISIERES,49.077139,6.189865
20144,HAUTS-DE-MAGNY,49.074047,6.190765
20143,BEAUSOLEIL,49.075796,6.18719
20145,HAUTS-DE-MAGNY,49.074146,6.190783
20850,PLATEAU,49.081531,6.185122
20851,PLATEAU,49.082391,6.184228
20148,MAGNY-AU-BOIS,49.075172,6.195029
20147,ARAGO,49.100696,6.221001
20852,EN PRILLE,49.109407,6.125291
20547,ST LADRE,49.09703,6.155166
20548,MERMOZ,49.094013,6.152037
20545,LOGES,49.098722,6.159194
20546,ST LADRE,49.096782,6.155238
20549,MERMOZ,49.09353,6.151576
20540,TANNERIES,49.127027,6.192853
20543,ARSENAL,49.123384,6.187981
20544,LOGES,49.099098,6.158229
20541,TANNERIES,49.126925,6.193033
20542,ARSENAL,49.122473,6.187973
20866,RN3,49.109673,6.09102
20867,HAIE BRULEE,49.111805,6.095545
20139,OBELLIANE,49.075987,6.192814
20864,CHAHURY,49.117661,6.084813
20865,RN3,49.109684,6.09121
20138,OBELLIANE,49.076163,6.192663
20869,CHAMPAGNE,49.041264,6.160788
20133,LA PLAINE,49.078403,6.190922
20132,LA PLAINE,49.077934,6.191975
20131,APREMONT,49.08029,6.187103
20130,APREMONT,49.079329,6.187963
20862,CHEMIN DES DAMES,49.11726,6.087838
20137,MEY,49.133892,6.237556
20863,CLERY,49.121184,6.080518
20136,TIGNOMONT,49.127531,6.16001
20135,ROOSEVELT,49.077187,6.1939
20861,CHEMIN DES DAMES,49.116918,6.088182
20134,ROOSEVELT,49.076713,6.194405
20516,PARAIGES,49.117189,6.179771
20518,TIGNOMONT,49.127595,6.160145
20519,FELIX MARECHAL,49.1305,6.139539
20512,JURA,49.118411,6.20051
20513,JURA,49.118502,6.200633
20514,TANNEURS,49.119442,6.181847
20510,PIVOINES,49.125901,6.227387
20829,PLACE DE FRANCE,49.156314,6.15322
20828,JUSSY - Ste RUFFINE,49.105111,6.089326
20835,COUPILLON,49.141575,6.148088
20836,RUCHER,49.144807,6.147837
20837,RUCHER,49.145042,6.147958
20838,SAULES,49.147614,6.152408
20128,FAUBOURG,49.08423,6.182744
20831,WOIPPY (Hotel de v.),49.151293,6.150132
10630,LAVANDIERES,49.14834,6.124132
20127,SUR-LE-GUE,49.086303,6.182406
20790,AUBEPINE,49.071542,6.193494
20832,GAMBETTA,49.14939,6.159635
20833,GAMBETTA,49.149076,6.160073
20129,FAUBOURG,49.084414,6.182861
20834,COUPILLON,49.141369,6.148121
10633,ST-REMY,49.173757,6.161965
20124,FRECOT,49.091349,6.181371
10634,D953,49.162728,6.16022
20123,BOUCHOTTE,49.092612,6.181337
10635,BERLANGE,49.155934,6.157178
20126,SUR-LE-GUE,49.086018,6.182328
10636,St Eloy (C. Ccial),49.148186,6.171778
20125,FRECOT,49.090629,6.181719
20830,WOIPPY (Hotel de v.),49.151263,6.149991
20120,VANDERNOOT,49.095549,6.180628
20122,BOUCHOTTE,49.092488,6.181196
20121,VANDERNOOT,49.095755,6.180724
20529,JP JEAN,49.125669,6.217188
20527,SAULNOIS,49.126457,6.222068
20398,FRIANT,49.10828,6.187721
20528,JP JEAN,49.125791,6.217504
20399,FRIANT,49.108275,6.187863
20525,MY MANGENOT,49.127851,6.225813
20526,SAULNOIS,49.126443,6.221837
20397,TURGOT,49.109848,6.188117
20523,BARBE,49.129329,6.229601
20394,LAMARTINE,49.100528,6.198082
20524,MY MANGENOT,49.127811,6.22547
20395,CREVAUX,49.099615,6.194323
20521,FONNY,49.1295,6.234914
20522,BARBE,49.12963,6.23001
20520,FONNY,49.12959,6.235033
20839,SAULES,49.147658,6.152498
20848,ARS LAQUENEXY,49.092779,6.270352
20849,ARS LAQUENEXY,49.092812,6.270065
20846,ROGET,49.149197,6.168863
20847,ROGET,49.148881,6.167447
20119,LOTHAIRE,49.099278,6.180501
20844,LADONCHAMPS,49.154362,6.152998
20118,LOTHAIRE,49.09957,6.180289
20845,LADONCHAMPS,49.153984,6.152469
20117,PIERNE,49.102273,6.179878
20842,WOIPPY CHATEAU,49.152891,6.144917
20116,PIERNE,49.102553,6.179745
20843,WOIPPY CHATEAU,49.152574,6.145724
20115,LEMUD,49.103874,6.179726
20393,LOTI,49.100805,6.20085
20114,LEMUD,49.104148,6.179543
20392,DALSTEIN,49.09973,6.202801
20113,DEMBOUR,49.106203,6.179397
20391,DEVILLY,49.10496,6.194459
20390,TROIS EVECHES,49.106289,6.191827
20112,DEMBOUR,49.106519,6.17921
20111,ROI GEORGE,49.110559,6.171241
20110,ROI GEORGE,49.111706,6.170383
10152,BORDES,49.114392,6.221714
10151,GUYENNE,49.112929,6.218802
20100,FORT MOSELLE,49.124845,6.164707
10150,PROVENCE,49.112606,6.215875
20103,ST ELOY,49.148186,6.171778
20104,MOULINS MAIRIE,49.106999,6.106378
20102,BELLE-ISLE,49.121261,6.168798
20107,ST JACQUES,49.118268,6.176644
20105,QUEULEU,49.099961,6.191345
21170,WOIPPY (Gare),49.148634,6.155258
20106,CLETTE,49.133269,6.133859
21171,WOIPPY (Gare),49.148682,6.155426
20109,PTE SERPENOISE,49.112599,6.171392
20306,PROVENCE,49.112996,6.215892
20303,STRASBOURG,49.110103,6.203215
20309,GUYENNE,49.113974,6.219899
20307,PROVENCE,49.112216,6.215858
10159,POTIERS D'ETAIN,49.115879,6.24365
10157,LE GOULLON,49.108292,6.231134
10158,SERRURIERS,49.118433,6.240051
10155,CLOUTIERS,49.114826,6.229374
10156,NONNETIERS,49.114711,6.236322
20300,ALCAN,49.112691,6.197275
10161,C.E.S.,49.094433,6.123785
10163,HESTAUX,49.100914,6.191513
10162,PAQUERETTES,49.092896,6.124455
21163,RAMON,49.140167,6.172249
21162,DALES,49.13245,6.165893
21161,BERNANOS,49.133017,6.168145
21160,PATROTTE,49.134853,6.160902
21166,ASPTT,49.108005,6.204901
21167,HOPITAL SCHUMAN,49.12335,6.242088
21164,OBERLING,49.103866,6.203033
21165,ASPTT,49.108148,6.204879
10168,ST MAXIMIN,49.105737,6.196728
10169,PUYMAIGRE,49.107066,6.194766
10164,GOUSSEL,49.101488,6.195573
10165,CLAUDEL,49.101626,6.198827
10166,OBERLING,49.102993,6.203162
10167,GENDARMERIE,49.10466,6.199631
10170,TREIZE,49.110119,6.189559
10174,ST LOUIS,49.116735,6.179038
10173,HAUTE-SEILLE,49.115234,6.181713
10172,MAZELLE,49.114557,6.183588
10171,PLAPPEVILLE,49.130544,6.124422
21195,LAVERAN,49.111883,6.199988
21190,GARE SNCF,49.111722,6.177286
21191,GARE SNCF,49.111345,6.176291
10177,VILLAS,49.112663,6.157812
10178,PEPINIERES,49.114161,6.154696
10175,ROYALE,49.115446,6.178972
10176,PALAIS  SPORTS,49.11114,6.161348
10179,BEAU RIVAGE,49.115924,6.150905
10181,LARDEMELLE,49.123939,6.149688
10180,SIGISBERT,49.122348,6.148858
10183,MARNE,49.12675,6.154041
10182,VICTOIRE,49.125054,6.153179
10185,TORTUE,49.128337,6.148317
10184,ST SIMON,49.127645,6.152042
21185,JUNGLING,49.148473,6.152707
21189,PORTE SERP. (HARELLE),49.112688,6.171667
21186,JUNGLING,49.148411,6.152358
10186,CASTORS,49.128419,6.145826
10187,FELIX MARECHAL,49.129767,6.138282
10188,LES VIGNES,49.128985,6.145182
10189,MIRABELLES,49.131461,6.146003
10195,DALSTEIN,49.09973,6.202801
10196,LOTI,49.100805,6.20085
10193,TROIS EVECHES,49.106289,6.191827
10399,GRANGE-AUX-DAMES,49.146299,6.190807
10194,DEVILLY,49.10496,6.194459
10397,PIERRET,49.163816,6.188608
10191,BUCHOZ,49.135243,6.148576
10192,DUPLOYE,49.109411,6.189032
10398,CENTRALE,49.154849,6.186189
10395,LA MAXE,49.168653,6.189551
10396,CHENEVIERES,49.165797,6.189656
10190,LA BUTTE,49.133042,6.147204
20341,GENDARMERIE,49.104741,6.199533
10394,FRANCLONCHAMPS,49.171161,6.189857
20342,ST MAXIMIN,49.105649,6.196698
20340,GENDARMERIE,49.104579,6.199729
20346,TREIZE,49.110119,6.189559
10199,FRIANT,49.108277,6.187792
20343,ST MAXIMIN,49.105825,6.196758
10198,CREVAUX,49.099615,6.194323
20344,PUYMAIGRE,49.107066,6.194766
10197,LAMARTINE,49.100528,6.198082
20349,MAZELLE,49.114821,6.184905
20330,ROI GEORGE,49.109938,6.170563
20331,ROI GEORGE,49.110393,6.169069
20332,PTE SERPENOISE,49.112635,6.171691
20334,HESTAUX,49.100914,6.191513
20336,GOUSSEL,49.101488,6.195573
20337,CLAUDEL,49.101626,6.198827
20338,OBERLING,49.10188,6.203653
20339,OBERLING,49.103234,6.2028
20591,HOTEL DE VILLE,49.060104,6.154189
20590,HOTEL DE VILLE,49.059997,6.154176
20324,POTIERS D'ETAIN,49.115608,6.243734
20320,LE GOULLON,49.108292,6.231134
20598,LARGANTIER,49.062113,6.14635
20599,LARGANTIER,49.062809,6.146279
20329,CONSTANTINE,49.091691,6.127011
20596,ST BRICE,49.060257,6.149938
20597,ST BRICE,49.060263,6.150131
20328,PAQUERETTES,49.092896,6.124455
20592,RUE DE LA GARE,49.060901,6.15204
20326,C.E.S.,49.094433,6.123785
20593,RUE DE LA GARE,49.061038,6.151602
20310,BORDES,49.11455,6.221373
20311,BORDES,49.114235,6.222056
20318,NONNETIERS,49.114735,6.23563
20319,NONNETIERS,49.114687,6.237015
20316,CLOUTIERS,49.114855,6.229297
20317,CLOUTIERS,49.114797,6.229451
10207,GENERAL FRERE,49.100096,6.205828
21202,C.F.P.A.,49.142821,6.171985
10208,SEULHOTTE,49.101372,6.208476
10205,GIRAUDOUX,49.097373,6.200068
21203,C.F.P.A.,49.142821,6.171985
10206,ROEDERER,49.098334,6.203206
21204,BLD SEROT,49.121151,6.167313
10209,SYMPHONIE,49.104609,6.214753
21209,POLE MULTIMODAL,49.10756,6.177989
10200,HERMITE,49.10581,6.187387
21205,POLE MULTIMODAL,49.107502,6.177571
10203,TIVOLI,49.09963,6.189627
10481,RUE DE METZ,49.155757,6.113044
21206,POLE MULTIMODAL,49.107628,6.177904
10204,GRANDMAISON,49.098091,6.194389
10482,SAULNY CENTRE,49.158584,6.106055
21207,POLE MULTIMODAL,49.107382,6.177498
10201,COLLIGNON,49.104316,6.187275
21208,POLE MULTIMODAL,49.107492,6.177825
10202,DUCROCQ,49.1016,6.188328
10480,PLACE PUBLIQUE,49.154534,6.118039
10486,VILLERS-L'ORME,49.151966,6.247561
10485,VANY,49.156329,6.239317
10484,CHIEULLES,49.15943,6.228848
10483,BREUIL,49.160397,6.225813
21008,POSTE EDF,49.151962,6.213736
10489,PINOTS MELES,49.134432,6.271087
21007,POSTE EDF,49.151962,6.213736
10488,NOUILLY CENTRE,49.135997,6.258564
10487,RUE DE METZ,49.132983,6.253171
21004,LASSAUX,49.116189,6.097918
21003,CHENEAU,49.10891,6.120849
21005,LASSAUX,49.116285,6.097991
21000,R. SCHUMAN,49.110626,6.112125
21002,CHENEAU,49.108874,6.120752
21001,R. SCHUMAN,49.110858,6.111853
21214,ORLY,49.075875,6.116839
21215,CHANTRENNE,49.145226,6.005294
21212,POLE MULTIMODAL,49.10745,6.177414
21213,ORLY,49.075613,6.116799
21210,POLE MULTIMODAL,49.107563,6.177741
21211,POLE MULTIMODAL,49.107431,6.177643
21218,BELLEVUE,49.172239,6.152838
21219,MATERNITE,49.083017,6.238801
10470,ATELIERS MUNICIPAUX,49.142504,6.121901
10471,LORRY GRAND RUE,49.14177,6.118458
10473,CARRIERE,49.169005,6.050133
10472,CHAPELLE,49.141697,6.115701
10475,AMANVILLERS MAIRIE,49.167333,6.04394
10474,GRAND RUE,49.168615,6.048465
10477,JUSTICE,49.166546,6.03834
10476,DOUANIERS,49.169581,6.048429
21019,ARS SUR MOSELLE,49.075693,6.076565
21018,ARS SUR MOSELLE,49.075878,6.076714
21017,SCHWALBACH,49.079248,6.065779
21016,SCHWALBACH,49.079296,6.065861
21015,RD6,49.09299,6.094943
21014,RD6,49.093875,6.095382
21013,CLEMENCEAU,49.080944,6.084693
21012,CLEMENCEAU,49.080143,6.083968
21010,VERDUN,49.080076,6.058153
21220,MATERNITE,49.083017,6.238801
21221,SAINTE AGATHE,49.16426,6.153709
21222,SAINTE AGATHE,49.164147,6.15392
21223,BRIEY,49.151277,6.147213
21224,BRIEY,49.150961,6.14779
10227,MESOYERS,49.125993,6.156947
21225,ARLES,49.145199,6.1511
21020,HLM,49.08315,6.086634
10228,PRES ST JACQUES,49.134329,6.130716
21226,ARLES,49.146173,6.150903
10225,STADE,49.131737,6.131396
10226,BRION,49.130101,6.132966
21229,POINCARE,49.116703,6.168605
10223,LA CROIX,49.128974,6.130409
10224,CROIX D'OREE,49.132377,6.125455
10221,LE LAC,49.096216,6.238373
10222,MOMENE,49.129137,6.127592
10220,FALOGNE,49.098016,6.240264
21029,CARCAN,49.093788,6.086953
21021,HLM,49.083369,6.087056
21023,LORRAINE,49.101225,6.107976
21028,PETIT COEUR,49.166103,6.040458
21232,LAVANDIERES,49.148385,6.124206
21230,POINCARE,49.116926,6.16884
21231,LAVANDIERES,49.148296,6.124059
21030,CARCAN,49.093696,6.086799
10216,MERCY,49.092133,6.240309
10217,CUVION,49.092432,6.242765
10218,DOLICHE,49.094574,6.245879
21235,HOPITAL SCHUMAN,49.12335,6.242088
10219,LA DAME,49.098717,6.243659
10490,LES CHAULMES,49.133829,6.275946
10212,ARAGO,49.101085,6.222855
10213,LINIERES,49.097163,6.224582
10491,MAS AU LIEVRE,49.131665,6.27507
10214,ENSAM,49.09622,6.226829
21239,MAZELLE,49.114293,6.182271
10215,F.I.M.,49.092126,6.234856
10210,CHAPPE,49.106779,6.221404
10211,TECHNOPOLE,49.104739,6.22349
10498,MALMAISON,49.124963,6.01698
10496,RUE D'ARS,49.111835,6.028919
21035,PRESSOIR,49.13519,6.257154
21034,PRESSOIR,49.13517,6.256955
21033,PENSEES,49.134655,6.273923
21032,PENSEES,49.134764,6.273566
10244,BERNE,49.122813,6.194014
10243,ARTILLEURS,49.120225,6.19327
10242,RAPHAEL LEVY,49.120159,6.190671
10241,JUIN,49.118265,6.189935
10248,METMAN,49.120078,6.209219
10247,PETITES SOEURS,49.119016,6.204298
10246,STOXEY,49.119624,6.196237
10245,ALSACE LORRAINE,49.121338,6.195082
21245,St Eloy (C. Ccial),49.148186,6.171778
10249,MAUJEAN,49.120182,6.214739
21242,D953,49.162748,6.160301
21241,D953,49.162709,6.160139
21244,BERLANGE,49.156139,6.157314
21243,BERLANGE,49.155729,6.157042
10449,COIN LES CUVRY,49.033541,6.155189
10447,CHAMPAGNE,49.041414,6.160733
10448,LA POMMERAIE,49.033528,6.16219
21240,ST-REMY,49.173757,6.161965
10442,CHATEL ST GERMAIN,49.122234,6.081553
10440,GOUJENOTTE,49.151719,6.188585
10445,CHAHURY,49.117661,6.084813
10446,RN3,49.109678,6.091115
10240,MAGINOT,49.116871,6.185283
10443,CHEMIN DES DAMES,49.117089,6.08801
10444,CLERY,49.121184,6.080518
10231,CAILLOUX,49.134604,6.136804
10230,CLETTE,49.133217,6.1337
10233,BAUCHEZ,49.136508,6.142904
10232,ROUSSEL,49.135489,6.139675
10235,LORRY,49.135455,6.14929
10234,SANSONNET,49.136426,6.147192
10237,LE MOYNE,49.131365,6.156508
10236,N. JUNG,49.133504,6.152807
10239,DENY,49.132554,6.142888
10238,COLIBRI,49.130172,6.158645
10436,ROGET,49.149039,6.168155
10437,ARS LAQUENEXY,49.092795,6.270208
10438,PLATEAU,49.081961,6.184675
10439,EN PRILLE,49.109443,6.125656
10430,COUPILLON,49.141472,6.148104
10431,RUCHER,49.144924,6.147897
10432,SAULES,49.147636,6.152453
10434,WOIPPY CHATEAU,49.152732,6.14532
10435,LADONCHAMPS,49.154173,6.152733
10460,ACTISUD DUNIL,49.076492,6.102891
10269,BILLOTTE,49.125686,6.197049
10268,DUNANT,49.123764,6.202839
10267,JOUSSE,49.122964,6.206574
10266,JUGAN,49.122397,6.212785
10265,CORCHADE,49.12313,6.215389
10264,JP JEAN,49.12573,6.217346
10263,SAULNOIS,49.12645,6.221952
10469,CARREFOUR,49.144439,6.127728
10467,SCY-CHAZELLES,49.114118,6.116556
10261,BARBE,49.129479,6.229805
10468,FRIERES,49.140274,6.13537
10262,MY MANGENOT,49.127831,6.225641
10465,LESSY,49.120937,6.094775
10466,LE QUOITY,49.123278,6.094878
10260,FONNY,49.129545,6.234973
10463,NOUILLONS,49.11195,6.097355
10464,ERMITAGE,49.118311,6.096334
10461,VAL DE METZ,49.093319,6.092967
10462,VAUX MAIRIE,49.093245,6.080532
10257,JURA,49.118456,6.200571
10256,PIVOINES,49.125901,6.227387
10259,PARAIGES,49.117189,6.179771
10258,TANNEURS,49.119442,6.181847
10253,LORIENT,49.122555,6.225093
10252,MEY,49.133892,6.237556
10255,OEILLETS,49.125157,6.230597
10254,JACINTHES,49.123946,6.226087
10458,LOTISSEMENT,49.063769,6.116536
10459,ZAC D'AUGNY,49.074625,6.107196
10454,CANONPRE,49.08984,6.117188
10455,GARE D'AUGNY,49.070195,6.137607
10456,AUGNY MAIRIE,49.058676,6.121885
10250,GENIVAUX,49.122094,6.216597
10457,LIBERATION,49.061226,6.117965
10251,FOUGERES,49.122191,6.218977
10450,LE CHAVEAU,49.032051,6.150935
10451,POURNOY LA CHETIVE,49.020579,6.155288
10452,COIN SUR SEILLE,49.009076,6.159937
10453,3  HAIES,49.09122,6.119734
20703,PAQUIS,49.10197,6.142095
20704,LILAS,49.095684,6.143428
20705,LILAS,49.095615,6.143766
10400,LES SILOS,49.140552,6.186841
20700,VERGERS,49.102288,6.1459
10402,11ème D'AVIATION,49.085986,6.145766
20701,VERGERS,49.102349,6.14573
10401,PORT DE METZ,49.13743,6.180954
20702,PAQUIS,49.10198,6.141882
10405,AUBEPINE,49.071542,6.193494
20500,FOUGERES,49.122636,6.218927
20506,JACINTHES,49.123995,6.225873
20505,LORIENT,49.122605,6.225379
20508,OEILLETS,49.125157,6.230597
20507,JACINTHES,49.123898,6.226301
20501,FOUGERES,49.121747,6.219027
20504,LORIENT,49.122506,6.224808
20896,ACTISUD DUNIL,49.076518,6.10284
20895,ACTISUD DUNIL,49.076466,6.102942
20894,ZAC D'AUGNY,49.075077,6.106751
20893,ZAC D'AUGNY,49.074174,6.107641
20892,LOTISSEMENT,49.064034,6.116671
20891,LOTISSEMENT,49.063505,6.116401
20890,LIBERATION,49.061266,6.118074
20899,VAUX MAIRIE,49.093245,6.080532
20898,VAL DE METZ,49.09327,6.093404
20897,VAL DE METZ,49.093368,6.092531
10001,REPUBLIQUE,49.115326,6.173456
10002,GARE SNCF,49.111068,6.176227
10005,LETTRES,49.120793,6.162896
10006,SCIENCES,49.120615,6.165188
10003,PLACE D'ARMES,49.119616,6.175635
10004,CITE U,49.120224,6.159604
10009,LAFAYETTE,49.10769,6.17207
10007,SEROT,49.119758,6.16977
10008,ST THIEBAULT,49.112582,6.177928
10422,COLOMBEY,49.110906,6.23054
10421,BOURGOGNE,49.114225,6.22703
20881,3  HAIES,49.091342,6.119554
10424,FEIVRES,49.114952,6.240372
20880,CUVRY,49.042993,6.158728
20883,CANONPRE,49.089867,6.117141
20882,3  HAIES,49.091098,6.119915
10420,POSTE EDF (St Julien),49.151962,6.213736
20885,GARE D'AUGNY,49.070182,6.137521
20884,CANONPRE,49.089813,6.117236
20887,AUGNY MAIRIE,49.05865,6.121845
20886,GARE D'AUGNY,49.070208,6.137694
10429,GAMBETTA,49.149233,6.159854
20889,LIBERATION,49.061187,6.117857
20888,AUGNY MAIRIE,49.058702,6.121926
10426,JUSSY - Ste RUFFINE,49.105111,6.089326
10428,WOIPPY (Hotel de v.),49.151278,6.150061
10427,PLACE DE FRANCE,49.156314,6.15322
10014,SEMINAIRE,49.098058,6.160681
10015,ST ANDRE,49.095283,6.158797
10016,SUGNON,49.094178,6.162731
10017,LYAUTEY,49.093665,6.167713
10010,BON SECOURS,49.107097,6.168823
10011,CHARLES PETRE,49.105247,6.166612
10012,MANGIN,49.102304,6.164195
10013,VAILLANT,49.100017,6.162263
10018,JERUSALEM,49.09183,6.16725
10019,COLSON,49.090122,6.166309
20870,CHAMPAGNE,49.041564,6.160678
20874,COIN LES CUVRY,49.033538,6.155293
20873,COIN LES CUVRY,49.033545,6.155086
20872,LA POMMERAIE,49.03343,6.162369
20871,LA POMMERAIE,49.033626,6.162012
10020,VACONS,49.087468,6.164413
20878,POURNOY LA CHETIVE,49.020375,6.155452
20877,POURNOY LA CHETIVE,49.020783,6.155125
10419,TCRM,49.127722,6.185036
20876,LE CHAVEAU,49.031998,6.150907
10418,CIMETIERE DE L'EST,49.110125,6.199822
20875,LE CHAVEAU,49.032105,6.150964
10415,MICHEL ANGE,49.059369,6.169179
20879,COIN SUR SEILLE,49.009076,6.159937
10414,CUVRY,49.042932,6.158753
10027,ST NICOLAS,49.113474,6.178398
10025,BIBLIOTHEQUE,49.12049,6.164445
10026,LE MOIGNE,49.120421,6.162431
10023,ST PRIVAT,49.084679,6.154756
10024,SAULCY,49.120683,6.168326
10021,MARGUERITE,49.088384,6.159496
10022,VOLONTAIRES,49.086557,6.15667
10029,HAIE BRULEE,49.111389,6.095982
20740,EN FOURNIRUE,49.118008,6.178726
20741,PLACE D'ARMES,49.119321,6.175582
20098,TIGNOMONT,49.126206,6.159475
20097,TIGNOMONT,49.125884,6.159294
20099,FORT MOSELLE,49.124075,6.165021
20093,FOCH,49.120605,6.147488
20094,FOCH,49.120773,6.148538
20095,ST MARTIN,49.121739,6.151237
20096,ST MARTIN,49.121498,6.150858
20090,CASINO,49.116421,6.141448
20091,PONT DE VERDUN,49.119105,6.143872
20092,PONT DE VERDUN,49.119034,6.144262
20737,ROYALE,49.115341,6.179071
20736,ROYALE,49.115552,6.178874
20735,ST LOUIS,49.116663,6.179721
20734,ST LOUIS,49.116808,6.178356
20076,PREVILLE,49.102093,6.104476
20075,DAGA,49.136612,6.155832
20078,ARDECHE,49.101443,6.106323
20077,ARDECHE,49.101008,6.106688
20079,LORRAINE,49.102831,6.109089
20718,PETIT PARIS,49.118241,6.175291
20719,TETE D'OR,49.117314,6.177093
20070,LIBERTE,49.107329,6.116123
20071,MOULINS,49.105465,6.110442
20072,MOULINS,49.106365,6.111226
20073,MOULINS,49.106518,6.11127
20074,VIEILLES EAUX,49.10332,6.105012
20089,CASINO,49.116681,6.14098
20088,MIGETTE,49.11407,6.139107
20087,MIGETTE,49.114024,6.138556
20086,LONGEVILLE,49.112335,6.134383
20717,FABERT,49.118938,6.175497
20716,CATHEDRALE,49.119988,6.174706
20080,LORRAINE,49.102676,6.10923
20081,SCY BAS,49.108537,6.12199
20707,ST QUENTIN,49.097827,6.143301
20708,JEANNE D'ARC,49.089257,6.153446
20084,LECLERC,49.111013,6.130629
20085,LONGEVILLE,49.112734,6.135214
20082,SCY BAS,49.108351,6.120437
20083,LECLERC,49.110828,6.129677
